{
"type": "FeatureCollection",
"features": [
{ "type": "Feature", "id": 1, "properties": { "school": "KIPP Vision", "schoolnumber": "0122", "level": "M", "ccrpi_score": 64.7, "milestones": 0.224, "sgp": 0.66400713308515602, "star_rating": "3", "enrollment": "charter", "link": "http:\/\/www.kippmetroatlanta.org\/kipp-vision-academy", "latitude": 33.68905, "longitude": -84.367025 }, "geometry": { "type": "Point", "coordinates": [ -84.367025, 33.68905 ] } },
{ "type": "Feature", "id": 2, "properties": { "school": "Carver Early", "schoolnumber": "0106", "level": "H", "ccrpi_score": 96.9, "milestones": 0.3842, "sgp": 0.7556207361449252, "star_rating": "4", "enrollment": "some_at", "link": "http:\/\/www.atlantapublicschools.us\/carverec", "latitude": 33.720176, "longitude": -84.387021 }, "geometry": { "type": "Point", "coordinates": [ -84.387021, 33.720176 ] } },
{ "type": "Feature", "id": 3, "properties": { "school": "Classical", "schoolnumber": "0415", "level": "H", "ccrpi_score": 79.2, "milestones": 0.5549, "sgp": 0.57451923076923073, "star_rating": "4", "enrollment": "charter", "link": "https:\/\/atlantaclassical.org\/", "latitude": 33.843921, "longitude": -84.407302 }, "geometry": { "type": "Point", "coordinates": [ -84.407302, 33.843921 ] } },
{ "type": "Feature", "id": 4, "properties": { "school": "Drew", "schoolnumber": "0515", "level": "H", "ccrpi_score": 81.2, "milestones": 0.4627, "sgp": 0.67026752970771486, "star_rating": "4", "enrollment": "charter", "link": "http:\/\/www.drewcharterschool.org", "latitude": 33.745723, "longitude": -84.314916 }, "geometry": { "type": "Point", "coordinates": [ -84.314916, 33.745723 ] } },
{ "type": "Feature", "id": 5, "properties": { "school": "Westside", "schoolnumber": "0314", "level": "E", "ccrpi_score": 65.8, "milestones": 0.4114, "sgp": 0.481338028169014, "star_rating": "4", "enrollment": "charter", "link": "http:\/\/www.wacs.us", "latitude": 33.804847, "longitude": -84.461605 }, "geometry": { "type": "Point", "coordinates": [ -84.450345, 33.792872 ] } },
{ "type": "Feature", "id": 9, "properties": { "school": "Classical", "schoolnumber": "0415", "level": "M", "ccrpi_score": 66.2, "milestones": 0.5569, "sgp": 0.59291061687372937, "star_rating": "4", "enrollment": "charter", "link": "https:\/\/atlantaclassical.org\/", "latitude": 33.843921, "longitude": -84.407302 }, "geometry": { "type": "Point", "coordinates": [ -84.407302, 33.843921 ] } },
{ "type": "Feature", "id": 11, "properties": { "school": "Wesley", "schoolnumber": "1208", "level": "E", "ccrpi_score": 70.1, "milestones": 0.4357, "sgp": 0.6077788882543308, "star_rating": "2", "enrollment": "charter", "link": "http:\/\/www.wesleyacademy.org", "latitude": 33.746869, "longitude": -84.380852 }, "geometry": { "type": "Point", "coordinates": [ -84.380852, 33.746869 ] } },
{ "type": "Feature", "id": 13, "properties": { "school": "Classical", "schoolnumber": "0415", "level": "E", "ccrpi_score": 69.0, "milestones": 0.5521, "sgp": 0.52437056034807217, "star_rating": "4", "enrollment": "charter", "link": "https:\/\/atlantaclassical.org\/", "latitude": 33.843921, "longitude": -84.407302 }, "geometry": { "type": "Point", "coordinates": [ -84.407302, 33.843921 ] } },
{ "type": "Feature", "id": 16, "properties": { "school": "Drew", "schoolnumber": "0515", "level": "M", "ccrpi_score": 75.8, "milestones": 0.4787, "sgp": 0.61477151709432976, "star_rating": "4", "enrollment": "charter", "link": "http:\/\/www.drewcharterschool.org", "latitude": 33.745723, "longitude": -84.314916 }, "geometry": { "type": "Point", "coordinates": [ -84.314916, 33.745723 ] } },
{ "type": "Feature", "id": 30, "properties": { "school": "Centennial", "schoolnumber": "0199", "level": "M", "ccrpi_score": 74.5, "milestones": 0.3714, "sgp": 0.7162686910995042, "star_rating": "2", "enrollment": "charter", "link": "http:\/\/www.centennialacademycharter.org", "latitude": 33.77112, "longitude": -84.396082 }, "geometry": { "type": "Point", "coordinates": [ -84.396082, 33.77112 ] } },
{ "type": "Feature", "id": 31, "properties": { "school": "WAYS Primary", "schoolnumber": "0215", "level": "E", "ccrpi_score": null, "milestones": null, "sgp": null, "star_rating": null, "enrollment": "charter", "link": "http:\/\/www.kippways.org", "latitude": 33.765028, "longitude": -84.422507 }, "geometry": { "type": "Point", "coordinates": [ -84.422507, 33.765028 ] } },
{ "type": "Feature", "id": 35, "properties": { "school": "Centennial", "schoolnumber": "0199", "level": "E", "ccrpi_score": 64.6, "milestones": 0.3411, "sgp": 0.6425206763363962, "star_rating": "2", "enrollment": "charter", "link": "http:\/\/www.centennialacademycharter.org", "latitude": 33.77112, "longitude": -84.396082 }, "geometry": { "type": "Point", "coordinates": [ -84.396082, 33.77112 ] } },
{ "type": "Feature", "id": 38, "properties": { "school": "KIPP Collegiate", "schoolnumber": "0212", "level": "H", "ccrpi_score": 78.0, "milestones": 0.2762, "sgp": 0.5726405065083402, "star_rating": "3", "enrollment": "charter", "link": "http:\/\/www.kippmetroatlanta.org\/kipp-atlanta-collegiate-high-school", "latitude": 33.756306, "longitude": -84.450748 }, "geometry": { "type": "Point", "coordinates": [ -84.450748, 33.756306 ] } },
{ "type": "Feature", "id": 42, "properties": { "school": "Wesley", "schoolnumber": "1208", "level": "M", "ccrpi_score": 66.6, "milestones": 0.324, "sgp": 0.59661478910370058, "star_rating": "2", "enrollment": "charter", "link": "http:\/\/www.wesleyacademy.org", "latitude": 33.746869, "longitude": -84.380852 }, "geometry": { "type": "Point", "coordinates": [ -84.380852, 33.746869 ] } },
{ "type": "Feature", "id": 47, "properties": { "school": "KIPP STRIVE", "schoolnumber": "0115", "level": "M", "ccrpi_score": 79.5, "milestones": 0.3933, "sgp": 0.72073870485887315, "star_rating": "4", "enrollment": "charter", "link": "http:\/\/www.kippmetroatlanta.org\/KIPP-Strive-Academy", "latitude": 33.742498, "longitude": -84.434993 }, "geometry": { "type": "Point", "coordinates": [ -84.434993, 33.742498 ] } },
{ "type": "Feature", "id": 53, "properties": { "school": "ANCS", "schoolnumber": "0206", "level": "M", "ccrpi_score": 74.1, "milestones": 0.5425, "sgp": 0.64314050679547885, "star_rating": "5", "enrollment": "charter", "link": "http:\/\/www.atlncs.org", "latitude": 33.731818, "longitude": -84.355412 }, "geometry": { "type": "Point", "coordinates": [ -84.355412, 33.731818 ] } },
{ "type": "Feature", "id": 55, "properties": { "school": "Kindezi O4W", "schoolnumber": "1417", "level": "E", "ccrpi_score": null, "milestones": null, "sgp": null, "star_rating": null, "enrollment": "charter", "link": "http:\/\/www.kindezi.org\/schools\/kindezio4w\/", "latitude": 33.767679, "longitude": -84.374491 }, "geometry": { "type": "Point", "coordinates": [ -84.374491, 33.767679 ] } },
{ "type": "Feature", "id": 56, "properties": { "school": "Westside", "schoolnumber": "0314", "level": "M", "ccrpi_score": null, "milestones": null, "sgp": null, "star_rating": "4", "enrollment": "charter", "link": "http:\/\/www.wacs.us", "latitude": 33.804847, "longitude": -84.461605 }, "geometry": { "type": "Point", "coordinates": [ -84.450345, 33.792872 ] } },
{ "type": "Feature", "id": 57, "properties": { "school": "Kindezi O4W", "schoolnumber": "1417", "level": "M", "ccrpi_score": null, "milestones": null, "sgp": null, "star_rating": null, "enrollment": "charter", "link": "http:\/\/www.kindezi.org\/schools\/kindezio4w\/", "latitude": 33.767679, "longitude": -84.374491 }, "geometry": { "type": "Point", "coordinates": [ -84.374491, 33.767679 ] } },
{ "type": "Feature", "id": 60, "properties": { "school": "ANCS", "schoolnumber": "0505", "level": "E", "ccrpi_score": 83.7, "milestones": 0.5704, "sgp": 0.71057328605200942, "star_rating": "4", "enrollment": "charter", "link": "http:\/\/www.atlncs.org", "latitude": 33.735638, "longitude": -84.376478 }, "geometry": { "type": "Point", "coordinates": [ -84.376478, 33.735638 ] } },
{ "type": "Feature", "id": 65, "properties": { "school": "STRIVE Primary", "schoolnumber": "0213", "level": "E", "ccrpi_score": 54.2, "milestones": 0.337, "sgp": 0.345, "star_rating": "4", "enrollment": "charter", "link": "http:\/\/www.kippmetroatlanta.org\/kipp-strive-primary", "latitude": 33.742398, "longitude": -84.434693 }, "geometry": { "type": "Point", "coordinates": [ -84.434693, 33.742398 ] } },
{ "type": "Feature", "id": 74, "properties": { "school": "Kindezi", "schoolnumber": "0123", "level": "M", "ccrpi_score": 77.8, "milestones": 0.2836, "sgp": 0.67604546095400009, "star_rating": "2", "enrollment": "charter", "link": "http:\/\/www.kindezi.org", "latitude": 33.754787, "longitude": -84.513367 }, "geometry": { "type": "Point", "coordinates": [ -84.513367, 33.754787 ] } },
{ "type": "Feature", "id": 77, "properties": { "school": "Vision Primary", "schoolnumber": "0214", "level": "E", "ccrpi_score": null, "milestones": 0.3711, "sgp": null, "star_rating": "2", "enrollment": "charter", "link": "http:\/\/www.kippmetroatlanta.org\/kipp-vision-primary", "latitude": 33.68905, "longitude": -84.367625 }, "geometry": { "type": "Point", "coordinates": [ -84.367625, 33.68905 ] } },
{ "type": "Feature", "id": 79, "properties": { "school": "BEST", "schoolnumber": "1411", "level": "H", "ccrpi_score": 63.8, "milestones": 0.1264, "sgp": 0.62586609873307109, "star_rating": "2", "enrollment": "open", "link": "http:\/\/www.atlantapublicschools.us\/best", "latitude": 33.78797, "longitude": -84.47721 }, "geometry": { "type": "Point", "coordinates": [ -84.47721, 33.78797 ] } },
{ "type": "Feature", "id": 80, "properties": { "school": "CSK", "schoolnumber": "1410", "level": "H", "ccrpi_score": 69.5, "milestones": 0.203, "sgp": 0.60964375485079614, "star_rating": "3", "enrollment": "open", "link": "http:\/\/www.atlantapublicschools.us\/csking", "latitude": 33.78864, "longitude": -84.479386 }, "geometry": { "type": "Point", "coordinates": [ -84.479386, 33.78864 ] } },
{ "type": "Feature", "id": 81, "properties": { "school": "CSK", "schoolnumber": "1410", "level": "M", "ccrpi_score": 64.0, "milestones": 0.1614, "sgp": 0.68615064162108841, "star_rating": "3", "enrollment": "open", "link": "http:\/\/www.atlantapublicschools.us\/csking", "latitude": 33.78864, "longitude": -84.479386 }, "geometry": { "type": "Point", "coordinates": [ -84.479386, 33.78864 ] } },
{ "type": "Feature", "id": 85, "properties": { "school": "Drew", "schoolnumber": "0201", "level": "E", "ccrpi_score": 84.7, "milestones": 0.5872, "sgp": 0.6481189958213539, "star_rating": "3", "enrollment": "charter", "link": "http:\/\/www.drewcharterschool.org", "latitude": 33.745223, "longitude": -84.314916 }, "geometry": { "type": "Point", "coordinates": [ -84.314916, 33.745223 ] } },
{ "type": "Feature", "id": 89, "properties": { "school": "KIPP WAYS", "schoolnumber": "0605", "level": "M", "ccrpi_score": 79.5, "milestones": 0.269, "sgp": 0.70186425513025885, "star_rating": "3", "enrollment": "charter", "link": "http:\/\/www.kippways.org", "latitude": 33.764528, "longitude": -84.422507 }, "geometry": { "type": "Point", "coordinates": [ -84.422507, 33.764528 ] } },
{ "type": "Feature", "id": 90, "properties": { "school": "Kindezi", "schoolnumber": "0123", "level": "E", "ccrpi_score": 75.0, "milestones": 0.3861, "sgp": 0.71401565474931239, "star_rating": "2", "enrollment": "charter", "link": "http:\/\/www.kindezi.org", "latitude": 33.754787, "longitude": -84.513367 }, "geometry": { "type": "Point", "coordinates": [ -84.513367, 33.754787 ] } },
{ "type": "Feature", "id": 98, "properties": { "school": "BEST", "schoolnumber": "1411", "level": "M", "ccrpi_score": 54.4, "milestones": 0.1116, "sgp": 0.57992928150954681, "star_rating": "2", "enrollment": "open", "link": "http:\/\/www.atlantapublicschools.us\/best", "latitude": 33.78797, "longitude": -84.47721 }, "geometry": { "type": "Point", "coordinates": [ -84.47721, 33.78797 ] } }
]
}
